Time,Longitude,Latitude,Altitude,Roll,Pitch,Heading
5.85833,-122.3573469,37.61362014,5.84085135,0.1917811222,-0.7306388932,297.8788008
6.86667,-122.3573469,37.61362014,5.840849861,0.1917610788,-0.7306452991,297.878801
7.875,-122.3573469,37.61362014,5.84084647,0.1917088254,-0.7306551387,297.8788016
8.875,-122.3573469,37.61362014,5.840842413,0.1916299239,-0.7306659338,297.8788025
9.91667,-122.3573469,37.61362014,5.84083885,0.1915612162,-0.7306754938,297.8788033
10.8667,-122.3573469,37.61362014,5.840833509,0.1914441592,-0.7306902555,297.8788047
11.9667,-122.3573469,37.61362014,5.840832764,0.1914329076,-0.730691995,297.8788048
12.8583,-122.3573469,37.61362014,5.840823023,0.1911794344,-0.7307176491,297.8788078
13.8583,-122.3573469,37.61362014,5.840818622,0.1910425277,-0.730731051,297.8788094
14.8667,-122.3573469,37.61362014,5.840814039,0.1908840533,-0.7307446396,297.8788113
15.8583,-122.3573469,37.61362014,5.840808726,0.1907001613,-0.7307599057,297.8788134
16.875,-122.3573469,37.61362014,5.840807605,0.1904952756,-0.7307631034,297.8788159
17.8667,-122.3573469,37.61362014,5.840806163,0.1904144042,-0.7307713627,297.8788169
18.8667,-122.3573469,37.61362014,5.840801813,0.1906318788,-0.7307842756,297.8788142
19.8583,-122.3573469,37.61362014,5.840797203,0.1908297143,-0.7307971362,297.8788118
20.8667,-122.3573469,37.61362014,5.840792243,0.1910335545,-0.7308106817,297.8788092
22.1333,-122.3573469,37.61362014,5.840786959,0.1912187846,-0.7308248731,297.878807
22.8667,-122.3573469,37.61362014,5.840783386,0.1914522852,-0.7308390414,297.8788041
24.025,-122.3573469,37.61362014,5.840779883,0.191734681,-0.7308502788,297.8788006
24.8667,-122.3573469,37.61362014,5.840776575,0.1919730318,-0.730862856,297.8787977
25.8833,-122.3573469,37.61362014,5.840773234,0.1922324734,-0.7308751784,297.8787945
26.875,-122.3573469,37.61362014,5.840768992,0.1925075108,-0.7308887172,297.8787912
27.925,-122.3573469,37.61362014,5.84076573,0.1928040063,-0.7309026835,297.8787875
28.8583,-122.3573469,37.61362014,5.840760404,0.1930858328,-0.7309181832,297.8787841
29.8917,-122.3573469,37.61362014,5.840756082,0.1934004431,-0.7309324319,297.8787802
30.8833,-122.3573469,37.61362014,5.840751071,0.1937286429,-0.7309491558,297.8787762
31.8667,-122.3573469,37.61362014,5.840746214,0.1940559533,-0.7309651484,297.8787722
32.8833,-122.3573469,37.61362014,5.840740604,0.1944091554,-0.730983557,297.8787679
33.9083,-122.3573469,37.61362014,5.840735263,0.1947849323,-0.7310007405,297.8787633
35.0917,-122.3573469,37.61362014,5.840729876,0.1951421112,-0.7310184253,297.8787589
35.8583,-122.3573469,37.61362014,5.839372559,0.19542284,-0.733226207,297.8787482
36.8667,-122.3573469,37.61362014,5.839348903,0.1953804201,-0.7332910272,297.8787485
37.8833,-122.3573469,37.61362014,5.839337956,0.1953817813,-0.7333099411,297.8787484
38.925,-122.3573469,37.61362014,5.83912921,0.1953786008,-0.7336914085,297.8787443
39.9083,-122.3573474,37.61362037,5.84156049,0.1954291261,-0.729656966,297.8786988
40.9,-122.3573507,37.61362176,5.846201156,0.1956069128,-0.7231601664,297.8782273
41.9,-122.3573609,37.61362603,5.854401129,0.1961154343,-0.7136877459,297.8761802
42.9,-122.3573826,37.61363516,5.867718976,0.1969619752,-0.7012533827,297.8712826
43.9167,-122.3574251,37.613653,5.889064921,0.1984951924,-0.6848275389,297.8602914
44.9083,-122.3574955,37.61368259,5.919690634,0.2009920848,-0.6661104273,297.83909
45.8833,-122.3576001,37.61372643,5.953755434,0.2042924838,-0.6602899054,297.8031678
46.8917,-122.3577496,37.61378904,6.000699566,0.2168846497,-0.6596009753,297.7452848
47.8917,-122.3579383,37.61386782,6.066250122,0.2205551488,-0.6549956856,297.6674175
48.9,-122.3581687,37.61396372,6.151856252,0.2039187857,-0.6529302415,297.5681459
49.8917,-122.3584317,37.61407276,6.263865466,0.2218656716,-0.644238509,297.4487395
50.875,-122.3587295,37.61419562,6.403636704,0.2149321549,-0.6375121383,297.3143356
51.8917,-122.3590815,37.61434015,6.590387585,0.2681271469,-0.6236945416,297.1554276
52.9,-122.3594664,37.61449727,6.771474368,0.2877210997,-0.6585891595,297.0015221
53.9083,-122.3598889,37.61466872,7.045856948,0.2885350204,-0.6085396428,296.8403769
54.8667,-122.3603209,37.61484299,7.31803593,0.2999115813,-0.6274012343,296.6955848
55.8917,-122.3608276,37.61504606,7.673732056,0.3136492436,-0.6305643647,296.4997375
56.8583,-122.3613361,37.61524782,8.04576945,0.3543734372,-0.6333589398,296.1577726
57.8833,-122.3619106,37.6154744,8.516668875,0.3242237437,-0.6249877762,296.1089544
58.9,-122.3625149,37.61571316,9.034451118,0.239580863,-0.6259925408,296.5321342
59.9,-122.3631463,37.61596488,9.609473186,0.1914461282,-0.6204893938,296.9840227
60.9,-122.3638028,37.6162297,10.23842789,0.2107745696,-0.6209961376,297.2410821
61.8583,-122.3644539,37.61649488,10.88735516,0.2561408619,-0.6217196799,297.3233017
62.9083,-122.3652105,37.61680506,11.66656443,0.2977129675,-0.6230472528,297.3515982
63.8917,-122.3659298,37.61710119,12.42094104,0.325851348,-0.6327125233,297.3683345
64.925,-122.3667347,37.61743337,13.29379432,0.3481600704,-0.6265361582,297.3916599
65.8833,-122.3675087,37.61775337,14.15238708,0.3672893333,-0.5949767007,297.4173474
66.8583,-122.3683154,37.6180873,15.03687134,0.3762289125,-0.5675190793,297.4398893
67.875,-122.3691837,37.61844717,16.01107002,0.373606968,-0.4854830998,297.4584854
68.875,-122.370064,37.6188123,17.22805288,0.3884176588,-0.1731921215,297.4700948
69.8667,-122.3709618,37.61918498,19.67128411,0.3984258704,1.383299131,297.4859644
70.8917,-122.3719147,37.61958086,25.33443201,0.4020744791,6.233081341,297.5080661
71.875,-122.3728479,37.61996922,37.00613357,0.6022236626,15.9723814,297.5255414
72.8833,-122.3738149,37.62037333,65.3406216,1.179075731,25.37053601,297.6367234
73.8667,-122.3747645,37.62077253,104.6360015,1.409593586,30.7627151,297.8705723
74.9083,-122.3757882,37.62120487,145.3803876,1.114920305,19.5641095,297.8344729
75.8833,-122.3767503,37.62161341,188.6927395,0.658779692,9.503240952,297.87177
76.875,-122.3777154,37.62202426,221.9440191,0.01191558242,8.533414707,298.0362591
77.9167,-122.3787738,37.62247515,246.0191024,-0.5841412023,10.13180558,298.1614202
78.9083,-122.3797821,37.6229043,264.2701818,-1.070747954,10.62501142,298.1672442
79.875,-122.3807975,37.62333535,281.492256,-1.555203089,10.19242505,298.0746779
80.9083,-122.3818896,37.62379683,300.9033888,-1.97591686,11.29546312,297.8346532
81.875,-122.3829244,37.62423098,323.9906423,-2.356723814,13.88294037,297.4963892
82.875,-122.3840054,37.62468011,356.683312,-2.244538664,15.19241263,297.1552891
83.8583,-122.3850866,37.62512525,394.9972005,-1.578805009,12.57437261,297.0001862
84.9167,-122.3862425,37.62559881,432.9674228,-2.145087247,8.874921255,297.0060968
85.8833,-122.3873209,37.62603867,458.4962751,-2.845073556,6.548662211,297.0232743
86.9083,-122.3884819,37.62650937,475.4418039,-3.605204277,7.050319552,296.8610489
87.9083,-122.3896427,37.62697517,487.393276,-4.220643076,8.309856986,296.5581827
88.8667,-122.3907628,37.62741857,498.9131991,-4.559373096,8.235581813,296.2520314
89.875,-122.3919583,37.62788457,512.4398917,-3.677682775,8.752392696,295.8031077
90.875,-122.3931575,37.62834475,533.5830764,-2.024924321,13.15540889,295.1775879
91.9167,-122.3944048,37.62881826,569.6418745,-0.4356505451,14.51499036,294.9981818
92.9,-122.3955958,37.62926858,612.1705498,0.2511132382,10.49902105,295.2137124
93.8583,-122.3967734,37.62971366,648.5979621,-0.6891437125,6.693809757,295.5771597
94.8917,-122.3980439,37.63019293,679.5454654,-1.775545992,10.04844999,295.8100271
95.9083,-122.3992911,37.63066007,715.5898075,-1.822230121,15.90522782,295.7277636
96.875,-122.4004842,37.63110269,768.7809446,-1.751414537,19.47490908,295.5713391
97.875,-122.4017197,37.63155685,842.9543555,-1.81834747,18.60470438,295.5174057
98.8833,-122.4029466,37.63200451,925.9802423,-1.943131551,16.95544473,295.4869181
99.8917,-122.40417,37.63244806,1009.780697,-2.123735177,16.65131611,295.4175722
100.892,-122.4053814,37.63288427,1092.393657,-2.435229868,17.43658799,295.3115495
101.892,-122.4065906,37.6333161,1175.475946,-2.729209039,17.234982,295.2348921
102.892,-122.4078004,37.63374473,1254.95191,-2.622593275,14.28241738,295.2613872
103.867,-122.408983,37.63416085,1326.483432,-2.526682527,14.45534519,295.1352879
104.892,-122.4102304,37.63459664,1396.960466,-2.407255862,15.03085016,294.9849707
105.858,-122.4113991,37.63500228,1461.085536,-2.26958641,14.76560776,295.0637568
106.867,-122.4126409,37.63543204,1527.190053,-1.745698146,14.0274825,295.7302
107.892,-122.4138965,37.63586405,1590.501733,-0.5775504229,13.26866062,295.7256542
108.892,-122.4151265,37.63628444,1648.294454,-0.4034950154,12.65885773,294.5035509
109.883,-122.4163515,37.63670158,1701.662977,-1.369372507,12.13570197,293.2805094
110.892,-122.4176134,37.63712914,1752.503417,-3.040312855,11.59053556,293.0640029
111.9,-122.4188725,37.63755148,1799.231035,-3.497447173,11.11566033,293.7690453
112.9,-122.4201195,37.63796359,1842.81135,-2.616041062,11.72771521,294.24427
113.892,-122.4213724,37.63837291,1888.218099,-2.169712808,14.20853149,294.3571101
114.9,-122.4226605,37.63879052,1936.745852,-1.368224738,8.12988825,294.4802392
115.883,-122.4238966,37.63919246,1951.170597,-1.273945367,-12.43673672,294.9015946
116.883,-122.4251869,37.63961522,1915.106271,-1.225620788,-12.06932942,294.7878949
117.9,-122.4265027,37.64004853,1842.813985,-1.629466432,-4.306223629,294.5159303
118.883,-122.4278031,37.64047664,1766.340189,-1.685900897,-2.573711111,294.3514481
119.867,-122.4291474,37.64091678,1706.921425,-1.603159345,6.065732299,293.9914788
120.875,-122.4305439,37.64137068,1674.230088,-1.79129887,7.689029503,293.8584255
121.867,-122.4319271,37.64181483,1680.807933,-1.741728001,17.8230715,293.4454978
122.867,-122.4333154,37.6422545,1730.04618,-1.891386532,19.36001559,293.3241942
123.858,-122.4346852,37.64268267,1808.670922,-2.019044965,18.08137359,293.2877943
124.858,-122.4360254,37.64309692,1902.4243,-2.181676769,20.53706303,293.0904131
125.858,-122.4373548,37.64350275,2012.014615,-2.37467369,23.92073202,292.8216019
126.892,-122.4386893,37.64390416,2140.221433,-2.684305202,24.29372615,292.6599665
127.883,-122.4399697,37.64428442,2270.840395,-3.068752218,21.19603698,292.6503701
128.867,-122.4412294,37.64465519,2395.028945,-3.413875468,19.42862741,292.5449839
129.892,-122.4425167,37.64503101,2513.177407,-3.798773957,19.09291799,292.3270374
130.867,-122.4437582,37.64538969,2620.285062,-3.356387636,19.08690794,292.0524294
131.867,-122.4450277,37.6457526,2724.122218,-2.517584471,18.08663692,291.8423176
132.883,-122.4462845,37.64610915,2820.275378,-1.89805075,16.87365616,291.7194259
133.858,-122.4475086,37.6464545,2907.851342,-2.153439929,17.02843348,291.6309387
134.858,-122.4487729,37.64680879,2994.032227,-2.141448821,17.0591803,291.5477467
135.892,-122.4500574,37.64716621,3076.716706,-0.9954103753,15.55173546,291.4909376
136.883,-122.4512989,37.64751048,3153.13072,-0.273545396,16.58640089,291.4407824
137.858,-122.4525161,37.6478478,3228.095835,0.2215182487,18.04048622,291.4663907
138.858,-122.4537812,37.64819897,3306.553744,0.6160152572,16.10602349,291.5554415
139.867,-122.4550223,37.64854501,3381.182542,-1.64380595,15.83771043,291.7387361
140.867,-122.4562596,37.64888798,3456.656805,-3.585190393,19.56617715,291.6343723
141.858,-122.4574786,37.64921962,3538.797931,-4.893501153,21.94090671,291.2153802
142.858,-122.4586954,37.64954144,3631.472366,-5.592191254,22.80870158,290.5822842
143.867,-122.4599101,37.64985292,3731.411646,-5.286591009,21.67847517,289.9922167
144.875,-122.4611178,37.65015511,3830.255785,-4.673285675,18.89105767,289.6288316
145.875,-122.4623219,37.65045054,3924.626011,-3.830195217,19.52388987,289.1012213
146.858,-122.4634836,37.65073061,4012.620589,-2.753882578,20.1241421,288.741804
147.883,-122.4646918,37.65101791,4101.465367,-1.459535583,18.54725793,288.6691721
148.867,-122.4658803,37.65129854,4182.006269,-1.045654746,15.36001879,288.8084931
149.875,-122.4670739,37.65157965,4250.785859,-1.089733007,12.52860775,288.9942867
150.858,-122.4682554,37.65185749,4306.3295,-1.258100155,12.26783532,289.0973734
151.883,-122.4694951,37.65214833,4355.466913,-1.403538379,13.15133376,289.1026658
152.875,-122.4707014,37.65243031,4398.723546,-1.560882248,13.01312575,289.0546727
153.875,-122.4719349,37.65271741,4439.536434,-1.705672986,11.88640411,288.973233
154.867,-122.4731559,37.65300042,4475.216335,-1.83054885,10.52539031,288.8688532
155.875,-122.4743971,37.65328705,4504.495528,-1.82636872,8.620128777,288.7696781
156.858,-122.4756294,37.65357074,4524.817663,-1.559338055,7.038107081,288.6663134
157.867,-122.4769064,37.65386396,4537.966127,-1.170065341,7.220585213,288.5377105
158.875,-122.4781975,37.6541599,4546.302552,-1.491998086,7.455147066,288.4716016
159.867,-122.4794807,37.65445291,4553.155266,-1.293926039,7.760440354,288.4016059
160.875,-122.4808106,37.6547558,4556.666031,-1.620412217,4.783755896,288.4293343
161.883,-122.4821335,37.65505682,4550.995477,-2.292505101,1.093885317,288.501209
162.858,-122.4834498,37.65535638,4527.281986,-2.42974872,-3.554672527,288.5734793
163.867,-122.4848191,37.65566747,4488.932593,-2.470704041,0.5501766823,288.2488637
164.875,-122.4862123,37.65598187,4448.495949,-2.383749758,2.762785399,287.988956
165.858,-122.4875936,37.65629118,4410.971656,-2.277556573,-0.06963335732,287.9541255
166.875,-122.4890309,37.65661122,4369.271738,-2.386058611,-1.4871253,287.8820546
167.858,-122.4904535,37.65692652,4322.417045,-2.325635302,-1.785345208,287.7714237
168.875,-122.4919471,37.65725585,4269.760363,-2.228534556,-1.388070121,287.6357056
169.858,-122.4934271,37.65758028,4217.255614,-2.137123255,-1.160990328,287.5213891
170.875,-122.4949678,37.65791596,4164.704926,-2.043961624,-0.3958172499,287.3979957
171.867,-122.4964672,37.65824041,4119.249063,-1.955057589,1.336205487,287.2560641
172.858,-122.4980126,37.65857242,4080.856346,-1.806445726,1.847665364,287.1655165
173.858,-122.4996021,37.65891174,4048.711291,-1.630599816,1.687265492,287.10962
174.875,-122.5012209,37.65925553,4021.682499,-1.690704342,2.805999671,287.0333698
175.858,-122.5028136,37.65959176,4003.631663,-1.740484214,4.968718598,286.9199594
176.875,-122.5044304,37.65993045,3998.293455,-1.700445766,6.783736614,286.8050903
177.875,-122.5060808,37.66027336,4007.110269,-1.658274808,7.62349136,286.718403
178.867,-122.5076937,37.66060605,4026.303163,-1.616800069,7.781196374,286.656619
179.867,-122.5093218,37.66093976,4052.814977,-1.5766738,8.346544856,286.5857874
180.858,-122.5109364,37.66126873,4085.360554,-1.538586199,9.205242907,286.509971
181.867,-122.5125907,37.6616038,4124.697624,-1.564480825,9.277448256,286.4583947
182.875,-122.514203,37.66192869,4165.952325,-1.721101691,8.680691154,286.4265112
183.867,-122.5158286,37.66225474,4206.973279,-1.986619592,8.244304119,286.3794733
184.858,-122.5174279,37.66257382,4245.414821,-2.244464028,8.130208276,286.3030094
185.867,-122.5190825,37.66290181,4283.46528,-2.506141756,8.085430594,286.1987962
186.858,-122.5206842,37.66321686,4319.067417,-2.759699172,7.971148802,286.0807921
187.867,-122.5223418,37.66354,4354.683916,-3.026089495,7.802940546,285.9425691
188.867,-122.5239744,37.66385498,4388.398492,-3.29385474,7.637633647,285.7898902
189.867,-122.5256095,37.66416682,4420.726728,-3.567238151,7.482902196,285.6207348
190.858,-122.5272337,37.66447262,4451.410476,-3.843253011,7.329696473,285.4372737
191.883,-122.5288884,37.66477972,4481.210246,-4.128393675,7.167954053,285.2347969
192.883,-122.5305329,37.66508008,4509.358894,-4.415400272,7.002812962,285.0177577
193.858,-122.532154,37.66537128,4535.109329,-5.732383546,6.311996106,284.8517206
195.017,-122.5338488,37.66566905,4559.331254,-3.189665774,6.567977165,284.4669023
195.892,-122.5354923,37.66595306,4583.47605,-0.7866331792,7.973934259,284.1752469
196.875,-122.5371218,37.66623312,4614.916195,0.9529306641,10.64882697,284.1817059
197.858,-122.5387867,37.6665209,4660.704029,0.9690349486,12.45705103,284.4633747
198.858,-122.5404145,37.6668042,4718.181323,1.106526155,12.2361544,284.7292704
199.883,-122.5420864,37.66709735,4785.362451,2.69421776,12.66214074,284.9592188
200.875,-122.5436932,37.66738355,4855.19328,1.368362833,12.7517493,285.2706175
201.858,-122.545268,37.6676672,4917.282657,-0.1899789237,6.846591492,285.3588983
202.867,-122.5468915,37.66796076,4977.714516,-0.9209635768,15.40607546,285.356247
203.867,-122.5484786,37.66824625,5059.11379,0.6902501218,24.33120353,285.2460107
204.892,-122.550043,37.66852847,5189.239681,1.720619634,33.67650497,285.5339267
205.892,-122.5515333,37.66879947,5325.525765,2.147438896,9.816163603,285.090314
206.883,-122.5530101,37.66906693,5420.700048,2.298832697,-1.525058458,285.0155585
207.883,-122.5545113,37.66933789,5449.876903,-0.6401261586,-6.576562492,285.1897927
208.867,-122.5560265,37.66961326,5434.815818,-2.068456111,-0.1960420824,285.3962861
209.883,-122.5575811,37.66989572,5399.812823,-0.8166372486,-1.650989259,285.6219051
210.875,-122.5591494,37.67018123,5347.681433,0.3437252935,-8.497834634,285.7149443
211.883,-122.5607219,37.67046738,5258.495091,3.861423227,-16.94970951,285.4693857
212.867,-122.5622531,37.67074181,5125.763457,10.08079217,-21.58631943,284.7340764
213.892,-122.5638054,37.67103748,4998.341251,8.185815515,18.16764621,290.8305808
214.875,-122.5653327,37.67134556,4886.180096,19.42252712,60.07990606,303.8575035
215.858,-122.5667618,37.67164497,4780.359577,14.03253403,42.32368721,297.5421348
216.867,-122.5681587,37.67195446,4685.308279,11.90305652,20.99215374,293.844598
217.875,-122.5695595,37.67229692,4616.70716,13.60780115,24.71135094,296.6863112
218.883,-122.5709633,37.67266943,4561.952872,16.31262194,29.31742995,299.9817939
219.858,-122.572331,37.67306268,4518.672093,16.22357583,27.67966297,301.6381067
220.867,-122.5737455,37.673506,4489.338165,11.01495516,27.32337667,302.9953825
221.875,-122.5751612,37.67398025,4474.625163,7.717893739,24.58443102,301.7438542
222.883,-122.5765675,37.67447789,4482.307312,4.298420296,23.08730286,299.7112872
223.883,-122.5779258,37.67497794,4527.699969,1.666150157,26.24822727,298.2170575
224.875,-122.5792571,37.6754764,4616.684109,0.7677778847,28.10113295,297.0489358
225.875,-122.5805255,37.67595368,4755.781856,0.2563881031,40.33917989,296.5806861
226.875,-122.5817329,37.67640772,4916.575336,0.7351020408,45.31232584,296.5624856
227.858,-122.5828673,37.67683436,5087.5002,1.524607481,40.47314306,296.8539908
228.883,-122.5839785,37.67725372,5289.703851,2.697918072,36.83842602,297.3955056
229.858,-122.5849795,37.67763455,5488.634161,4.22203265,38.73077236,298.2524205
230.858,-122.5859515,37.67801016,5696.609268,6.016550018,42.80145799,299.4469611
231.875,-122.586862,37.67837258,5916.787757,9.242094501,51.54903555,302.0163157
232.858,-122.5876747,37.67870983,6138.07291,10.89678171,50.46728719,302.6929256
233.875,-122.5884885,37.67905183,6340.883331,7.416359327,19.34687584,297.7141413
234.858,-122.5892791,37.6793819,6496.043964,4.739670609,-4.715242215,295.8183706
235.892,-122.5901352,37.67974029,6623.173115,0.4990269144,-6.721740341,296.8979016
236.867,-122.5910079,37.68010565,6703.981923,-3.391910578,1.372434627,299.097651
237.875,-122.5919182,37.68048891,6737.64922,-5.155980209,2.993287474,301.629002
238.883,-122.5928382,37.68087803,6732.386034,-3.306398239,-6.187331429,303.988644
239.858,-122.5937558,37.68126748,6691.672911,0.3619788454,-14.50324346,304.8292321
240.883,-122.5947109,37.68167275,6604.178924,5.05864675,-26.42645589,303.7193684
241.883,-122.5956164,37.68204678,6461.585233,12.66825915,-52.33486739,297.735442
242.867,-122.5964867,37.68238757,6270.546931,74.96359003,-79.21014903,241.2507213
243.875,-122.5973244,37.68269157,6039.693184,155.6830718,-65.74968233,172.3391339
244.883,-122.5981232,37.68297568,5765.839411,127.0035537,-71.3161502,215.7635739
245.867,-122.5988656,37.68329357,5482.892912,61.09635517,-29.41876937,324.2967909
246.875,-122.5995391,37.68358126,5187.648332,41.66952697,7.786103472,332.7131888
247.875,-122.6002366,37.68386193,4857.967923,3.962193703,-23.50160029,304.1042019
248.867,-122.6009636,37.68418499,4537.131882,-11.89306267,-43.33791264,277.1549722
249.867,-122.6018216,37.68450295,4226.35783,-27.09902353,-41.88545121,263.125974
250.858,-122.602839,37.68472681,3923.417614,-29.67012257,-13.9573411,255.7851904
251.883,-122.6039748,37.68490189,3590.906379,-14.82856961,-4.696738752,263.2040319
252.858,-122.6051363,37.68502524,3270.953266,-5.466142503,-15.00987752,276.913092
253.875,-122.6065116,37.68514186,2970.732351,-1.914977747,-12.46666765,287.0081179
254.883,-122.6079876,37.68527062,2730.569958,1.087018017,13.49879261,286.7398631
255.867,-122.6094997,37.68542242,2496.995943,-2.725547417,4.191617912,282.9330849
256.875,-122.6111447,37.68559461,2293.989585,-3.918090811,10.17123299,278.4250748
257.867,-122.6128785,37.6857742,2116.523012,-2.120871588,4.592653324,277.9423943
258.883,-122.6146729,37.68594863,2005.530881,-2.893967797,4.764953735,278.7608031
259.858,-122.6164544,37.68610569,1974.652479,-0.8755033767,16.82293842,278.6739418
260.875,-122.6183162,37.68626212,2014.964017,-0.9358345611,24.58588955,279.3130874
261.875,-122.6200819,37.68640437,2118.569188,-1.273452648,20.56766099,279.8490068
262.875,-122.6218055,37.68653969,2240.033972,-2.330981514,11.62855167,280.0450082
263.858,-122.6234961,37.68667342,2343.039902,-3.951097421,13.28227823,279.8163974
264.858,-122.6252179,37.68681233,2417.551665,-4.223484724,0.07277828991,280.5363036
265.867,-122.6269787,37.68696062,2445.604381,-4.234783258,-0.4859093916,280.2824388
266.867,-122.6287207,37.68711024,2438.451465,-2.677948413,-0.7960049766,279.9738428
267.867,-122.6304689,37.68726101,2401.93559,-3.461683452,-11.09038049,280.1317866
268.875,-122.6322303,37.68742041,2318.010369,-9.167872575,-13.16564945,280.1851613
269.858,-122.6339424,37.68757684,2205.320109,-9.377349538,-10.62138187,279.9039703
270.875,-122.6357647,37.6877366,2071.481052,-7.510683658,-12.2364915,279.9763032
271.875,-122.6375737,37.68788689,1937.790151,-4.739235848,-9.91777472,279.2182663
272.892,-122.6394043,37.68803509,1793.625003,-2.536580916,-18.61706259,279.5384534
273.883,-122.6412033,37.68818236,1606.825415,-4.188192888,-23.73023652,279.5774816
274.858,-122.6430016,37.68832031,1431.622251,-7.361565596,3.223321241,277.0948929
275.867,-122.644958,37.68844158,1308.713428,-8.771097631,0.03893512271,276.920678
276.867,-122.6469195,37.68852476,1259.44477,-6.795383128,4.771068066,275.3029748
277.867,-122.648867,37.68857552,1282.05967,-1.13748377,27.20980698,273.1854866
278.858,-122.6507801,37.68861782,1353.334468,0.670134496,20.94030693,273.5923754
279.883,-122.6526999,37.68865693,1467.120108,2.217414197,13.64888249,274.6305497
280.867,-122.6544873,37.68869473,1590.759484,4.162267982,25.59991106,276.0362479
281.858,-122.6562253,37.68874313,1768.64664,6.583388927,37.31627812,277.8939516
282.883,-122.6578861,37.6888063,1999.050382,5.133017895,25.42206052,277.1216594
283.858,-122.6594522,37.68887245,2200.870966,1.292981036,16.87307699,276.9070977
284.883,-122.661082,37.688944,2377.516038,-2.357610522,22.56513533,277.7379576
285.875,-122.6626781,37.68901985,2508.923384,-4.917938063,0.4059124577,279.3988268
286.867,-122.6643074,37.68911027,2577.603751,-3.681386151,-10.29134235,280.1645841
287.892,-122.6659625,37.6892175,2566.810099,-8.347896779,-18.81258729,280.8187073
288.867,-122.667583,37.6893292,2509.841834,-12.05946663,3.853379313,276.5812403
289.875,-122.6692542,37.68941736,2467.859746,-9.463914447,21.18638587,273.0013443
290.867,-122.6709427,37.68948164,2448.268642,-32.07655126,22.3005056,272.1749664
291.858,-122.6725819,37.68945502,2463.037194,-28.47691085,14.19951084,268.5642
292.875,-122.6743176,37.68933822,2501.067422,-6.116758714,6.098273618,263.6497332
293.875,-122.6759862,37.68921029,2546.982736,9.689696668,17.77119267,263.199025
294.883,-122.6776257,37.6890984,2608.193288,24.53584839,12.05084574,264.3940026
295.875,-122.6792781,37.68897325,2639.307111,31.62746155,-12.71561781,262.1858234
296.867,-122.6808826,37.68876607,2608.351097,69.84136795,-29.33762169,248.2818757
297.858,-122.6824873,37.6884742,2531.157723,108.9914734,-28.25237273,245.7071355
298.883,-122.6841046,37.68813115,2424.760535,99.98364329,-6.694730946,257.1836214
299.858,-122.6856136,37.6877446,2283.779407,55.81728586,0.6898571479,242.1751391
300.858,-122.6871425,37.68735919,2099.407222,1.110325021,-18.91818441,239.2560262
301.875,-122.6887302,37.68696956,1919.390415,-28.0572498,-7.132230807,253.9342809
302.883,-122.6902998,37.68648647,1775.789315,-12.22040796,18.31787947,252.0181261
303.883,-122.6919385,37.68595732,1640.139076,-13.6636003,12.94622729,250.0929922
304.908,-122.6934237,37.68544494,1557.567193,-13.78919085,12.86972786,245.1634026
305.858,-122.6952098,37.68476782,1521.49348,-13.69004072,22.72541383,239.6698396
306.858,-122.6968537,37.68409957,1523.424158,-16.29480048,23.0442054,240.363891
307.867,-122.698463,37.68337746,1574.273686,-21.76791793,16.35939144,242.1299581
308.875,-122.6999963,37.68260879,1662.821015,-25.63142291,19.328548,238.6710237
309.875,-122.701442,37.68180295,1774.310553,-31.03236582,22.49459454,234.3889004
310.883,-122.7028018,37.68095076,1904.789179,-28.62584656,22.31019286,231.4601347
311.858,-122.7040542,37.68008718,2042.944662,-24.31744119,22.68455552,228.8625978
312.875,-122.7053029,37.67915716,2196.634542,-16.9683462,24.36155295,226.4580022
313.875,-122.7064529,37.67824947,2353.833231,-15.95551398,25.26006799,225.6354604
314.883,-122.7075843,37.67733215,2504.236966,-16.42011851,13.96942628,229.1819016
315.867,-122.7087156,37.67641507,2613.983422,-1.511120158,6.07117739,230.4132046
316.883,-122.7098805,37.67547392,2689.333125,-3.920508763,10.73007118,229.021087
317.867,-122.7110497,37.67454548,2719.646136,-8.614910433,-11.66613379,230.5841372
318.867,-122.712233,37.67363052,2689.810808,-17.48478973,-24.42789782,232.0681921
319.858,-122.7134201,37.67270238,2633.605291,-25.75723939,8.781243201,221.7489579
320.883,-122.7145879,37.6717237,2576.835961,-20.08080384,7.927691984,223.7816598
321.858,-122.7156835,37.67071705,2548.201948,-14.57797537,7.96295886,223.8304796
322.867,-122.716761,37.66965521,2559.49799,-12.85059147,23.54392308,218.2634995
323.858,-122.7177848,37.66859175,2605.204555,-9.130407918,27.35088494,215.9759066
324.867,-122.718781,37.66750899,2689.7679,-9.459820514,22.03564615,216.9660164
325.867,-122.7197317,37.66644163,2786.73059,-6.801644142,8.962132381,219.1098793
326.867,-122.7206838,37.66536878,2853.097116,-5.100722844,2.81245393,219.7009514
327.883,-122.7216557,37.66427824,2887.125251,-8.150171095,5.294112322,219.1515426
328.858,-122.7226061,37.66320531,2903.541206,-3.195931983,6.626682708,218.406791
329.858,-122.7235707,37.66211253,2931.246024,12.57303228,17.27841498,217.8587086
330.867,-122.7245669,37.66103508,2983.105274,36.33343849,16.88153565,218.5035607
331.867,-122.7255917,37.65999864,3036.13143,70.23680762,10.81353547,221.6922318
332.875,-122.7266875,37.65899936,3069.274341,108.5974728,4.978468797,235.664297
333.867,-122.727883,37.65811423,3050.972261,140.2428044,-10.70708084,251.7820826
334.867,-122.7291127,37.65736238,2943.81839,161.1129804,-42.8465251,264.2392622
335.867,-122.7302634,37.65665977,2769.595363,-110.4815054,-84.79380355,197.0615175
336.875,-122.7312824,37.65599729,2560.736789,-29.57925126,-46.87474665,135.1505148
337.867,-122.7321763,37.65536401,2328.398095,-21.24415126,-7.856015045,161.251706
338.858,-122.7329715,37.65477885,2082.883438,7.067538196,11.86241868,206.8986343
339.875,-122.7337077,37.65422431,1804.424617,31.67802249,-15.01433029,257.7334754
340.858,-122.7343733,37.65371041,1522.621151,36.96210951,-44.2511406,304.1150278
341.858,-122.7350454,37.65325943,1225.983219,33.76278733,-45.12491223,351.3385445
342.867,-122.7356551,37.65290491,906.0093966,29.88713646,-42.72768362,21.30939246
343.883,-122.7361628,37.65263769,561.2363356,22.5094158,-46.92840605,51.33291631
344.875,-122.7366409,37.65241885,186.0261823,-81.5967499,-86.6076154,187.9986513
345.867,-122.7369604,37.65236341,-14.48960672,-177.3113443,0.7648275116,283.894985
346.883,-122.7369669,37.65236487,-14.66784965,-177.6837928,-28.56423373,284.2307537
347.875,-122.7369884,37.65236945,-14.8554837,-178.9875824,-25.65480599,285.2367707
348.875,-122.7370269,37.6523783,-9.421850322,-178.880987,2.464191118,286.3508182
349.883,-122.7370357,37.65238063,-10.2687375,-177.6518646,-0.5924653084,286.4274633
350.867,-122.7370398,37.6523823,-10.2224142,-173.9439658,-1.039415792,286.4075497
351.883,-122.7370397,37.65238298,-9.290135644,-170.7126463,-0.262607582,286.3764133
352.867,-122.7370397,37.65238255,-8.010320641,-172.0442609,1.266647109,286.3412213
353.875,-122.7370399,37.65238202,-7.430918056,-173.7637094,2.307674452,286.2762662
354.867,-122.7370406,37.65238188,-8.119298031,-174.622575,1.975967849,286.2356493
355.867,-122.7370414,37.65238219,-9.381653202,-174.0452263,0.7008238722,286.2372283
356.925,-122.737042,37.65238261,-10.24102487,-172.5787666,-0.5418356396,286.2267887
